{"features":[
    {
        "site_name": "Native American South Carolina",
        "web_link": "http://usclancaster.sc.edu/NAS/index.html",
        "web_link_hover": "Go To NASC Online...",
        "description": "",
        "img_embed": "",
        "yt_embed": "",
        "lng": -80.770182,
        "lat": 34.719727
    },
    {
        "site_name": "Johannes Kolb",
        "web_link": "https://38da75.com/",
        "web_link_hover": "",
        "description": "",
        "img_embed": "",
        "yt_embed": "https://www.youtube.com/embed/wWh5bveJAo8",
        "lng": -79.707045,
        "lat": 34.381568
    },
    {
        "site_name": "Winyah Bay",
        "web_link": "http://www.scencyclopedia.org/sce/entries/chicora-francisco-de/",
        "web_link_hover": "",
        "description": "",
        "img_embed": "",
        "yt_embed": "",
        "lng": -79.242887,
        "lat": 33.278699
    },
    {
        "site_name": "Catawba Reservation",
        "web_link": "http://catawbaindian.net/about-us/our-culture/catawba-cultural-center/",
        "web_link_hover": "Go To Catawba Cultural Center Online...",
        "description": "",
        "img_embed": "http://www.scencyclopedia.org/sce/wp-content/uploads/2016/04/Catawba-People-in-Rock-Hill-SC-300x226.jpg",
        "yt_embed": "",
        "lng": -79.242887,
        "lat": 33.278699
    },
    {
        "site_name": "Sewee Shell Ring",
        "web_link": "https://www.fs.usda.gov/recarea/scnfs/recarea/?recid=47387",
        "web_link_hover": "",
        "description": "",
        "img_embed": "",
        "yt_embed": "",
        "lng": -79.609097,
        "lat": 33.001073
    },
    {
        "site_name": "Fort Watson Mound",
        "web_link": "https://www.fws.gov/refuge/santee/",
        "web_link_hover": "",
        "description": "",
        "img_embed": "",
        "yt_embed": "",
        "lng": -80.43783,
        "lat": 33.53896
    },
    {
        "site_name": "Topper Site",
        "web_link": "http://www.southeasternpaleoamerican.org/",
        "web_link_hover": "",
        "description": "",
        "img_embed": "",
        "yt_embed": "https://www.youtube.com/embed/-eQIZqofvwg",
        "lng": -81.244916,
        "lat": 33.013573
    },
    {
        "site_name": "South Carolina State Museum",
        "web_link": "http://scmuseum.org/",
        "web_link_hover": "Go To The Museum's Website...",
        "description": "",
        "img_embed": "",
        "yt_embed": "",
        "lng": -81.048125,
        "lat": 33.999332
    },
    {
        "site_name": "Sea Pines Shell Ring",
        "web_link": "https://www.seapines.com/pdf/Forest%20Preserve%20Map.pdf",
        "web_link_hover": "",
        "description": "",
        "img_embed": "",
        "yt_embed": "https://www.youtube.com/embed/HqBThdC4zAE",
        "lng": -80.776078,
        "lat": 32.139857
    },
    {
        "site_name": "Museum of the Cherokee",
        "web_link": "http://www.cherokeemuseumsc.org/",
        "web_link_hover": "Go To The Museum's Website",
        "description": "",
        "img_embed": "",
        "yt_embed": "",
        "lng": -83.068118,
        "lat": 34.764566
    }
]}